City_ID,City,Lat,Lng,Max Temp,Humidity,Cloudiness,Wind Speed,Country,Date
0,maralal,1.0968,36.698,21.26,49,93,3.82,KE,1689174717
1,mar del plata,-38.0023,-57.5575,8.86,73,100,8.05,AR,1689174599
2,as sulayyil,20.4607,45.5779,42.71,9,31,5.13,SA,1689174717
3,haiku-pauwela,20.9219,-156.3051,25.02,75,0,2.57,US,1689174717
4,vila franca do campo,37.7167,-25.4333,23.23,83,89,8.77,PT,1689174717
5,port-aux-francais,-49.35,70.2167,3.82,74,100,9.45,TF,1689174718
6,san patricio,28.017,-97.5169,33.26,58,50,6.18,US,1689174718
7,carnarvon,-24.8667,113.6333,18.19,80,0,6.91,AU,1689174652
8,chibougamau,49.9168,-74.3659,17.34,49,94,2.95,CA,1689174582
9,tadine,-21.55,167.8833,19.71,58,8,6.93,NC,1689174718
10,aasiaat,68.7098,-52.8699,4.24,96,100,4.26,GL,1689174718
11,banepa,27.6298,85.5214,23.4,88,75,1.03,NP,1689174718
12,ribeira grande,38.5167,-28.7,22.22,94,75,9.83,PT,1689174719
13,hawaiian paradise park,19.5933,-154.9731,22.8,95,100,1.54,US,1689174719
14,hithadhoo,-0.6,73.0833,28.56,72,100,3.87,MV,1689174719
15,el matama,16.7095,33.3565,39.97,13,97,2.65,SD,1689174719
16,pangkalanbuun,-2.6833,111.6167,23.51,91,80,0.72,ID,1689174719
17,adamstown,-25.066,-130.1015,21.17,68,22,3.81,PN,1689174484
18,shindand,33.3029,62.1474,34.64,6,0,15.33,AF,1689174720
19,edinburgh of the seven seas,-37.0676,-12.3116,14.07,91,74,5.79,SH,1689174720
20,wailua homesteads,22.0669,-159.378,26.44,85,75,6.17,US,1689174720
21,bredasdorp,-34.5322,20.0403,13.39,73,0,2.27,ZA,1689174720
22,port augusta,-32.5,137.7667,9.12,66,1,2.25,AU,1689174720
23,olonkinbyen,70.9221,-8.7187,4.01,93,99,8.37,SJ,1689174721
24,cabedelo,-6.9811,-34.8339,29.37,74,32,6.79,BR,1689174721
25,minas de marcona,-15.2119,-75.1103,14.58,76,82,7.32,PE,1689174721
26,isafjordur,66.0755,-23.124,12.02,50,75,6.17,IS,1689174721
27,jiuquan,39.7432,98.5174,20.29,41,100,2.71,CN,1689174721
28,ancud,-41.8697,-73.8203,5.82,80,7,1.36,CL,1689174722
29,san antonio de pale,-1.4014,5.6325,23.5,86,0,4.96,GQ,1689174722
30,grytviken,-54.2811,-36.5092,-4.84,81,21,2.16,GS,1689174722
31,tekkali,18.6167,84.2333,28.56,81,48,1.67,IN,1689174722
32,san sebastian de la gomera,28.0916,-17.1133,31.88,54,0,5.14,ES,1689174722
33,petropavlovsk-kamchatsky,53.0452,158.6483,7.1,93,29,4.45,RU,1689174722
34,fale old settlement,-9.3852,-171.2468,28.5,75,80,5.83,TK,1689174723
35,taro,-8.3862,115.28,23.0,96,72,0.65,ID,1689174723
36,sakaiminato,35.55,133.2333,24.56,89,93,5.77,JP,1689174723
37,nova sintra,14.8667,-24.7167,21.76,74,99,4.32,CV,1689174723
38,rio gallegos,-51.6226,-69.2181,0.03,80,20,3.6,AR,1689174724
39,yellowknife,62.456,-114.3525,19.2,48,20,2.68,CA,1689174481
40,jamestown,42.097,-79.2353,22.79,92,100,0.89,US,1689174724
41,gunnedah,-30.9833,150.25,7.83,69,2,1.51,AU,1689174724
42,wenchang,30.904,118.4887,29.25,70,100,2.05,CN,1689174724
43,waitangi,-43.9535,-176.5597,7.68,93,100,4.92,NZ,1689174725
44,ust'-ilimsk,58.0006,102.6619,14.0,52,5,0.89,RU,1689174725
45,monte patria,-30.6919,-70.9467,14.44,57,22,0.77,CL,1689174725
46,puerto natales,-51.7236,-72.4875,-2.75,86,75,1.54,CL,1689174431
47,xam nua,20.4197,104.0439,21.76,80,23,1.38,LA,1689174725
48,bethel,41.3712,-73.414,30.86,64,0,4.12,US,1689174725
49,mejit,10.2753,170.8646,28.07,79,11,6.54,MH,1689174726
50,kelibia,36.8476,11.0939,31.14,74,0,3.6,TN,1689174726
51,peniche,39.3558,-9.3811,26.16,71,95,6.47,PT,1689174726
52,washington court house,39.5364,-83.4391,28.55,63,0,4.12,US,1689174726
53,margaret river,-33.95,115.0667,17.06,79,100,11.11,AU,1689174726
54,iskateley,67.6803,53.1512,11.52,60,99,6.97,RU,1689174727
55,zaozersk,69.4005,32.4476,22.77,47,40,5.19,RU,1689174727
56,machali,-34.1833,-70.6667,8.6,93,75,2.57,CL,1689174727
57,vadso,70.0744,29.7487,28.49,49,0,6.17,NO,1689174727
58,jammalamadugu,14.8333,78.4,31.94,47,100,4.73,IN,1689174727
59,chernyshevsk,52.5243,117.0174,17.97,78,1,1.99,RU,1689174697
60,zyryanovsk,49.7386,84.2719,22.1,56,1,2.9,KZ,1689174728
61,punta arenas,-53.15,-70.9167,1.01,100,75,2.57,CL,1689174728
62,meadow lakes,61.6247,-149.6011,13.74,95,100,0.0,US,1689174626
63,fauske,67.2588,15.3918,21.64,51,100,6.2,NO,1689174728
64,miquelon,47.0975,-56.3814,14.0,94,64,8.5,PM,1689174728
65,kapa'a,22.0752,-159.319,27.18,85,75,6.17,US,1689174728
66,hamilton,39.1834,-84.5333,29.44,58,0,3.09,US,1689174586
67,bryan,30.6744,-96.37,32.61,64,40,7.2,US,1689174729
68,ushuaia,-54.8,-68.3,3.81,56,20,3.6,AR,1689174729
69,georgetown,5.4112,100.3354,29.02,90,20,0.0,MY,1689174504
70,mitu,1.1983,-70.1733,26.7,88,46,0.17,CO,1689174729
71,chillicothe,39.3331,-82.9824,28.84,60,0,1.54,US,1689174460
72,new norfolk,-42.7826,147.0587,14.72,83,100,3.78,AU,1689174729
73,lihue,21.9789,-159.3672,26.77,81,75,6.17,US,1689174730
74,albany,42.6001,-73.9662,28.77,67,66,0.45,US,1689174730
75,bubaque,11.2833,-15.8333,27.08,75,100,1.4,GW,1689174730
76,mallow,52.1333,-8.6333,17.5,73,68,4.75,IE,1689174730
77,college,64.8569,-147.8028,14.21,92,100,3.09,US,1689174730
78,longyearbyen,78.2186,15.6401,9.91,76,75,2.57,SJ,1689174730
79,lebu,-37.6167,-73.65,9.7,61,87,1.17,CL,1689174731
80,horki,54.2861,30.9842,19.46,55,43,4.36,BY,1689174731
81,ataq,14.5377,46.8319,33.35,29,45,4.26,YE,1689174731
82,talnakh,69.4865,88.3972,4.56,69,100,6.54,RU,1689174731
83,knyaze-volkonskoye,48.4642,135.4567,16.19,84,100,2.25,RU,1689174731
84,ust'-kut,56.7938,105.7672,11.95,91,23,1.26,RU,1689174731
85,atafu village,-8.5421,-172.5159,28.5,74,94,5.72,TK,1689174732
86,blackmans bay,-43.0167,147.3167,14.07,79,100,3.46,AU,1689174732
87,tiksi,71.6872,128.8694,3.53,96,100,3.19,RU,1689174732
88,whitehorse,60.7161,-135.0538,11.68,67,75,3.6,CA,1689174732
89,huarmey,-10.0681,-78.1522,22.08,74,69,3.92,PE,1689174732
90,hotan,37.0997,79.9269,27.82,25,11,2.79,CN,1689174733
91,qamdo,31.1667,97.2333,12.59,54,93,1.35,CN,1689174733
92,tolanaro,-25.0319,46.9987,17.73,71,80,3.39,MG,1689174733
93,blagoveshchensk,50.2667,127.5333,18.47,57,77,2.23,RU,1689174471
94,le port,-20.9373,55.2919,22.98,94,26,2.12,RE,1689174733
95,aroma,15.8167,36.1333,38.06,21,35,2.76,SD,1689174733
96,sumenep,-7.0167,113.8667,25.95,69,78,1.73,ID,1689174734
97,al hasakah,36.5024,40.7477,38.54,9,0,6.67,SY,1689174734
98,stephenville,32.2207,-98.2023,32.36,45,0,5.66,US,1689174734
99,shenjiamen,29.9576,122.298,25.41,92,38,11.58,CN,1689174734
100,puerto ayora,-0.7393,-90.3518,25.86,93,95,3.58,EC,1689174734
101,west island,-12.1568,96.8225,25.99,94,75,5.66,CC,1689174734
102,yulinshi,38.2906,109.7494,21.8,72,98,8.81,CN,1689174735
103,naberera,-4.2,36.9333,19.73,57,77,7.17,TZ,1689174735
104,escarcega,18.6089,-90.7454,31.36,53,22,3.51,MX,1689174735
105,mana,5.6592,-53.7767,26.67,84,85,2.95,GF,1689174735
106,brokopondo,4.75,-55.1667,28.5,67,9,1.45,SR,1689174735
107,scottburgh,-30.2867,30.7532,16.83,66,0,1.97,ZA,1689174735
108,zakynthos,37.7914,20.8953,33.62,40,0,3.6,GR,1689174631
109,kapuskasing,49.4169,-82.4331,20.05,52,75,3.6,CA,1689174736
110,tsiombe,-25.3,45.4833,18.92,50,98,3.99,MG,1689174736
111,iqaluit,63.7506,-68.5145,8.72,93,75,7.2,CA,1689174736
112,muynoq,43.7683,59.0214,31.39,33,47,6.4,UZ,1689174736
113,alvinopolis,-20.1067,-43.0489,29.48,36,1,2.11,BR,1689174736
114,ust-nera,64.5667,143.2,19.27,60,93,3.08,RU,1689174737
115,guangshui,31.6199,113.9978,29.05,78,100,1.97,CN,1689174737
116,anadyr,64.75,177.4833,12.28,93,75,4.0,RU,1689174738
117,south hedland,-20.4089,118.5983,17.96,68,0,2.06,AU,1689174739
118,castillos,-34.1667,-53.8333,14.4,64,91,7.17,UY,1689174740
119,upper grand lagoon,30.1633,-85.7408,32.81,76,20,6.69,US,1689174741
120,stanley,54.868,-1.6985,19.73,65,20,7.2,GB,1689174449
121,vilyuchinsk,52.9306,158.4028,7.92,82,0,3.81,RU,1689174743
122,huancavelica,-12.7667,-74.9833,9.43,38,6,2.07,PE,1689174744
123,khorugh,37.4897,71.553,25.27,22,0,3.1,TJ,1689174744
124,sejenane,37.0572,9.2381,39.53,21,1,4.8,TN,1689174745
125,vorgashor,67.5833,63.95,14.22,54,0,3.54,RU,1689174747
126,okondja,-0.6549,13.6753,29.07,55,100,0.41,GA,1689174749
127,papatowai,-46.5619,169.4708,5.39,95,100,5.12,NZ,1689174749
128,klyuchi,52.2667,79.1667,26.52,46,35,4.98,RU,1689174750
129,palmares do sul,-30.2578,-50.5097,16.59,96,100,7.32,BR,1689174750
130,rio grande,-32.035,-52.0986,15.06,88,100,11.25,BR,1689174750
131,sierra grande,-41.606,-65.3557,5.96,72,99,2.08,AR,1689174750
132,jijel,36.8205,5.7667,34.97,34,20,2.57,DZ,1689174751
133,silkeborg,56.1697,9.5451,20.93,60,52,7.42,DK,1689174752
134,zhanibek,49.4167,46.85,23.55,38,88,3.8,KZ,1689174752
135,thompson,55.7435,-97.8558,15.09,88,75,1.54,CA,1689174753
136,bilibino,68.0546,166.4372,14.19,63,88,1.12,RU,1689174753
137,corn island,12.1694,-83.0418,27.77,84,98,7.73,NI,1689174753
138,fasa,28.9383,53.6482,37.46,10,0,2.67,IR,1689174753
139,vernon,50.2581,-119.2691,21.27,74,99,1.79,CA,1689174614
140,homer,59.6425,-151.5483,13.21,96,100,1.79,US,1689174458
141,madang,-5.2246,145.7966,25.81,90,100,1.01,PG,1689174754
142,orapa,-21.2833,25.3667,15.72,39,5,8.39,BW,1689174754
143,saint john,45.2727,-66.0677,25.57,69,0,1.54,CA,1689174754
144,bereket,39.2446,55.5154,36.64,26,0,2.94,TM,1689174755
145,bokoro,12.3807,17.0568,36.11,34,80,5.95,TD,1689174755
146,nagqu,31.5,92.0,7.17,92,100,1.68,CN,1689174755
147,baki,-7.6128,110.7839,22.63,75,80,3.62,ID,1689174755
148,nezhinka,51.7676,55.3694,25.11,33,20,8.05,RU,1689174755
149,yalta,44.5,34.1667,25.29,55,0,3.13,UA,1689174756
150,crane,31.3974,-102.3501,31.35,36,22,7.96,US,1689174756
151,beroroha,-21.6667,45.1667,24.08,44,62,5.17,MG,1689174756
152,ilulissat,69.2167,-51.1,10.01,71,40,1.03,GL,1689174756
153,beau vallon,-20.4189,57.6953,22.13,83,20,2.57,MU,1689174756
154,vikhorevka,56.1201,101.1636,15.77,89,1,1.12,RU,1689174756
155,quincy,42.2529,-71.0023,32.68,54,20,3.09,US,1689174635
156,lompoc,34.6391,-120.4579,14.08,100,100,0.0,US,1689174718
157,bandarbeyla,9.4942,50.8122,24.61,80,1,14.02,SO,1689174757
158,makoua,0.0069,15.6333,33.36,39,90,0.73,CG,1689174698
159,weno,7.4515,151.8468,26.97,89,100,0.0,FM,1689174757
160,thunder bay,48.4001,-89.3168,18.99,63,75,1.03,CA,1689174757
161,plymouth,41.8334,-70.8328,33.22,64,0,1.54,US,1689174473
162,tomakomai,42.6369,141.6033,20.65,100,75,4.63,JP,1689174757
163,klaksvik,62.2266,-6.589,10.51,98,100,8.14,FO,1689174758
164,mangrol,21.1167,70.1167,28.32,82,100,5.35,IN,1689174758
165,san andres,12.5847,-81.7006,31.01,74,40,7.2,CO,1689174758
166,oyama,36.3,139.8,32.55,59,100,0.79,JP,1689174758
167,ciudad bolivar,8.1222,-63.5497,31.26,53,62,3.6,VE,1689174758
168,douarnenez,48.0954,-4.329,20.45,68,75,6.17,FR,1689174758
169,port mathurin,-19.6833,63.4167,23.69,77,13,5.11,MU,1689174758
170,nikologory,56.1413,41.9922,12.37,75,100,4.39,RU,1689174758
171,badger,64.8,-147.5333,14.17,93,100,3.09,US,1689174759
172,karasburg,-28.0167,18.75,17.67,16,1,7.73,NA,1689174759
173,hermanus,-34.4187,19.2345,17.67,63,0,2.03,ZA,1689174759
174,kerikeri,-35.2268,173.9474,9.39,93,100,0.45,NZ,1689174759
175,jequitinhonha,-16.4339,-41.0033,31.68,33,0,2.48,BR,1689174476
176,geraldton,-28.7667,114.6,9.23,93,0,2.06,AU,1689174759
177,sao tome,0.3365,6.7273,25.39,79,30,5.45,ST,1689174760
178,malanje,-9.5402,16.341,27.61,16,0,2.84,AO,1689174760
179,mirny,62.5353,113.9611,14.02,76,85,4.02,RU,1689174760
180,sungailiat,-1.85,106.1333,26.96,78,83,3.63,ID,1689174761
181,utrik,11.2278,169.8474,28.0,80,18,6.43,MH,1689174761
182,dunedin,-45.8742,170.5036,7.11,72,84,4.02,NZ,1689174598
183,corinto,37.9407,22.9573,31.61,25,0,1.63,GR,1689174761
184,garachico,28.7781,-17.7646,25.06,69,0,7.2,ES,1689174762
185,prince rupert,54.3161,-130.3201,12.9,70,100,0.85,CA,1689174588
186,fort bragg,35.139,-79.006,32.68,71,40,0.45,US,1689174630
187,kyren,51.6828,102.1408,16.86,96,90,1.9,RU,1689174763
188,lata,40.1629,-8.3327,29.16,45,97,5.34,PT,1689174763
189,podgornoye,51.735,39.1496,18.12,45,0,5.0,RU,1689174763
190,arcachon,44.5875,-1.0519,26.34,60,75,4.63,FR,1689174763
191,pirallahi,40.4723,50.333,26.08,65,0,3.63,AZ,1689174764
192,novyy urengoy,66.0833,76.6333,12.77,51,35,5.24,RU,1689174764
193,champerico,14.3,-91.9167,31.3,77,99,1.99,GT,1689174764
194,alofi,-19.0595,-169.9187,22.94,100,53,2.57,NU,1689174764
195,nouadhibou,20.931,-17.0347,28.99,58,1,3.09,MR,1689174764
196,sterling,39.0062,-77.4286,32.21,51,0,2.06,US,1689174642
197,rafsanjan,30.4067,55.9939,35.19,6,0,8.59,IR,1689174765
198,general cabrera,-32.8131,-63.8724,6.68,92,100,3.94,AR,1689174765
199,comodoro rivadavia,-45.8667,-67.5,3.92,70,75,1.54,AR,1689174765
200,dol-de-bretagne,48.5476,-1.7502,21.63,62,79,5.88,FR,1689174765
201,kodiak,57.79,-152.4072,11.73,87,100,2.06,US,1689174621
202,stutterheim,-32.5708,27.424,12.76,51,0,1.41,ZA,1689174765
203,oranjemund,-28.55,16.4333,22.98,22,1,4.53,NA,1689174766
204,avarua,-21.2078,-159.775,24.03,88,75,2.57,CK,1689174766
205,gillette,44.2911,-105.5022,22.28,56,0,3.6,US,1689174550
206,qaqortoq,60.7167,-46.0333,8.05,86,31,3.18,GL,1689174766
207,port lincoln,-34.7333,135.8667,11.8,66,59,5.0,AU,1689174766
208,constantia,44.1833,28.65,28.38,60,4,6.57,RO,1689174703
209,uturoa,-16.7333,-151.4333,26.52,70,5,10.35,PF,1689174767
210,christchurch,-43.5333,172.6333,2.19,87,12,0.0,NZ,1689174257
211,chateaubelair,13.2833,-61.25,27.63,77,78,5.6,VC,1689174767
212,sampit,-2.5333,112.95,22.9,88,67,1.34,ID,1689174767
213,invercargill,-46.4,168.35,5.64,95,100,3.57,NZ,1689174767
214,smara,26.7384,-11.6719,47.93,5,13,4.74,EH,1689174767
215,diu,20.7141,70.9822,27.82,81,100,4.8,IN,1689174768
216,kailua-kona,19.6406,-155.9956,23.98,83,0,2.68,US,1689174726
217,kokemaki,61.2565,22.3564,20.88,35,56,0.59,FI,1689174768
218,carupano,10.6678,-63.2585,30.08,65,89,4.43,VE,1689174768
219,nar'yan-mar,67.6713,53.087,11.58,60,100,6.99,RU,1689174768
220,kuching,1.55,110.3333,28.34,93,40,0.0,MY,1689174768
221,udachny,66.4167,112.4,11.36,81,55,4.51,RU,1689174769
222,asosa,10.0667,34.5333,20.59,88,41,0.8,ET,1689174769
223,st. john's,47.5649,-52.7093,19.2,87,75,4.12,CA,1689174730
224,chanute,37.6792,-95.4572,29.69,70,0,6.69,US,1689174497
225,adi keyh,14.8444,39.3772,22.9,39,61,2.79,ER,1689174769
226,saipan,15.1355,145.701,28.39,100,40,4.63,MP,1689174493
227,hasaki,35.7333,140.8333,27.22,79,100,5.72,JP,1689174769
228,swift current,50.2834,-107.8014,16.45,88,0,1.54,CA,1689174770
229,ma'an,26.9775,110.7211,26.98,77,100,2.71,CN,1689174770
230,dudinka,69.4058,86.1778,4.79,60,100,6.87,RU,1689174770
231,shuangjiang,26.1547,109.7138,23.89,92,39,2.47,CN,1689174770
232,syktyvkar,61.6764,50.8099,24.85,73,40,6.0,RU,1689174671
233,ndioum,16.5129,-14.6471,38.6,30,20,4.72,SN,1689174770
234,mournies,35.4764,24.0092,31.22,48,0,2.57,GR,1689174770
235,perry,37.2506,-83.1999,26.4,48,1,0.19,US,1689174661
236,khandyga,62.6667,135.6,17.24,97,99,0.8,RU,1689174771
237,tommot,58.9564,126.2925,17.09,95,100,1.54,RU,1689174771
238,hungnam,39.8317,127.6186,21.2,90,94,0.68,KP,1689174771
239,colonia,50.9333,6.95,27.2,36,0,6.69,DE,1689174562
240,kirkwall,58.9848,-2.9587,14.03,88,75,6.69,GB,1689174771
241,kayangel,8.0823,134.7173,28.49,75,100,4.98,PW,1689174771
242,rundu,-17.9333,19.7667,19.94,20,0,4.77,NA,1689174771
243,north battleford,52.7834,-108.2847,16.34,46,25,2.35,CA,1689174541
244,east london,-33.0153,27.9116,15.52,82,0,1.54,ZA,1689174772
245,kangding,30.0513,101.9603,17.62,98,100,1.27,CN,1689174772
246,taiyuan,37.8694,112.5603,23.92,73,40,6.0,CN,1689174508
247,nuuk,64.1835,-51.7216,18.34,63,20,7.72,GL,1689174772
248,inarajan village,13.2736,144.7484,27.08,97,100,4.8,GU,1689174772
249,huamuxtitlan,17.8167,-98.5667,23.12,77,100,0.99,MX,1689174772
250,prieska,-29.6641,22.7474,17.39,20,0,1.14,ZA,1689174773
251,papao,-17.75,-149.55,23.82,71,5,10.47,PF,1689174773
252,sisimiut,66.9395,-53.6735,13.26,74,100,2.63,GL,1689174773
253,simdega,22.6167,84.5167,28.23,72,100,3.27,IN,1689174773
254,cabo san lucas,22.8909,-109.9124,29.23,81,75,3.09,MX,1689174628
255,sumbe,-11.2061,13.8437,23.29,76,20,3.68,AO,1689174773
256,arraial do cabo,-22.9661,-42.0278,25.92,73,0,3.6,BR,1689174773
257,kolonia town,6.964,158.206,26.0,94,20,0.0,FM,1689174774
258,vilyuysk,63.7553,121.6247,11.25,88,90,3.39,RU,1689174774
259,bama,11.5221,13.6856,36.68,29,79,2.95,NG,1689174774
260,arkhangel'sk,64.5401,40.5433,12.7,79,100,5.12,RU,1689174774
261,yaren,-0.5472,166.916,28.41,74,72,3.56,NR,1689174779
262,katsuura,35.1333,140.3,26.01,87,100,10.05,JP,1689174779
263,wagoner,35.9595,-95.3694,30.77,88,0,4.58,US,1689174780
264,alice springs,-23.7,133.8833,3.75,81,0,3.53,AU,1689174780
265,port elizabeth,-33.918,25.5701,16.72,77,0,2.06,ZA,1689174780
266,melfort,52.8667,-104.6177,18.07,55,49,3.09,CA,1689174669
267,nyala,12.05,24.8833,24.64,68,100,3.84,SD,1689174780
268,antsiranana,-12.2787,49.2917,23.66,77,6,6.14,MG,1689174780
269,emerald,-23.5333,148.1667,14.17,73,0,3.32,AU,1689174484
270,selfoss,63.9331,-20.9971,16.14,55,95,3.98,IS,1689174781
271,smithers,54.7804,-127.1743,13.18,62,20,1.54,CA,1689174781
272,aweil,8.7682,27.4002,30.06,57,97,2.59,SS,1689174781
273,akhisar,38.9185,27.8401,36.84,23,0,4.12,TR,1689174781
274,thinadhoo,0.5333,72.9333,28.16,75,100,3.57,MV,1689174781
275,ashington,50.9331,-0.3909,21.14,64,40,11.32,GB,1689174781
276,arvayheer,46.2639,102.775,10.11,88,68,3.16,MN,1689174782
277,billund,55.7335,9.1078,20.38,68,40,7.72,DK,1689174782
278,dabou,5.3256,-4.3769,25.8,84,92,4.23,CI,1689174782
279,labrador city,52.9463,-66.9114,16.95,82,100,3.09,CA,1689174782
280,poyang,28.9924,116.6675,29.89,62,100,3.5,CN,1689174782
281,vidalia,32.2177,-82.4135,31.97,58,0,0.0,US,1689174782
282,novyy rogachik,48.6768,44.0608,24.5,46,95,5.86,RU,1689174783
283,rmi capitol,7.0893,171.3805,27.97,83,75,1.54,MH,1689174783
284,tahla,34.0485,-4.428,41.08,15,7,5.71,MA,1689174783
285,saudarkrokur,65.7461,-19.6394,7.84,73,100,8.94,IS,1689174784
286,quellon,-43.1167,-73.6167,4.14,100,0,1.03,CL,1689174784
287,tazovsky,67.4667,78.7,7.22,55,8,4.39,RU,1689174784
288,les avirons,-21.2418,55.3394,21.03,68,0,2.06,RE,1689174785
289,korla,41.7597,86.1469,28.14,33,0,1.62,CN,1689174785
290,sao joao da barra,-21.6403,-41.0511,28.05,74,19,3.18,BR,1689174683
291,konarka,19.9,86.1167,29.22,79,87,3.43,IN,1689174786
292,sretensk,52.2453,117.7093,16.84,92,29,1.05,RU,1689174787
293,al qubbah,32.7616,22.2424,25.97,41,0,6.31,LY,1689174787
294,leesburg,39.1157,-77.5636,32.12,56,0,2.06,US,1689174661
295,bardai,11.65,7.2333,34.17,32,56,4.55,NG,1689174787
296,nahiyat al fuhud,30.9697,46.7228,42.98,7,0,10.26,IQ,1689174788
297,afaahiti,-17.75,-149.2833,22.93,73,7,9.93,PF,1689174788
298,vanimo,-2.6741,141.3028,26.13,89,100,3.43,PG,1689174788
299,valdivia,-39.8142,-73.2459,5.05,84,55,0.71,CL,1689174789
300,delcevo,41.9672,22.7694,31.18,39,0,2.06,MK,1689174789
301,igunga,-4.2833,33.8833,28.32,28,32,6.2,TZ,1689174789
302,khor,47.8861,134.9464,15.19,86,100,0.79,RU,1689174789
303,auki,-8.7676,160.7034,24.17,84,99,3.52,SB,1689174790
304,cromer,52.9312,1.2989,22.86,52,100,8.05,GB,1689174790
305,acapulco de juarez,16.8634,-99.8901,29.9,74,75,3.6,MX,1689174530
306,port alfred,-33.5906,26.891,17.32,67,0,0.45,ZA,1689174790
307,okhotsk,59.3833,143.3,10.69,93,3,1.96,RU,1689174790
308,susuman,62.7833,148.1667,12.41,66,10,2.62,RU,1689174791
309,happy valley-goose bay,53.3168,-60.3315,19.17,88,100,4.63,CA,1689174791
310,kesinga,20.2,83.2333,28.76,74,100,2.42,IN,1689174791
311,jesup,31.6074,-81.8854,33.86,52,40,2.57,US,1689174707
312,dumingag,8.1692,123.3506,24.53,99,100,1.86,PH,1689174791
313,caleta de carquin,-11.0925,-77.6267,21.14,75,57,4.08,PE,1689174792
314,anzio,41.4853,12.6179,35.63,59,0,5.57,IT,1689174792
315,darwin,-12.4611,130.8418,23.99,78,0,1.54,AU,1689174792
316,paoua,7.2427,16.4406,30.46,56,30,2.39,CF,1689174792
317,cuito,-12.3833,16.9333,21.19,12,0,2.7,AO,1689174792
318,al quwayrah,29.8004,35.3116,36.0,17,0,5.05,JO,1689174792
319,vegreville,53.5001,-112.0518,15.17,88,86,2.06,CA,1689174793
320,sandnessjoen,66.0217,12.6316,21.06,56,75,4.12,NO,1689174793
321,aykhal,66.0,111.5,8.94,77,63,5.29,RU,1689174610
322,ko lanta,7.5336,99.0865,28.49,73,73,4.06,TH,1689174793
323,howrah,22.5892,88.3103,29.0,89,40,4.12,IN,1689174793
324,pasighat,28.0667,95.3333,24.4,100,100,1.3,IN,1689174794
325,el bauga,18.262,33.9081,40.95,9,51,3.99,SD,1689174794
326,tura,25.5198,90.2201,24.06,95,100,3.1,IN,1689174794
327,port saint john's,-31.6229,29.5448,18.1,63,0,3.41,ZA,1689174794
328,farkhar,36.5729,69.8578,27.16,20,0,1.13,AF,1689174794
329,kombissiri,12.0656,-1.3375,34.44,40,100,1.19,BF,1689174794
330,paysandu,-32.3214,-58.0756,9.78,94,100,7.45,UY,1689174795
331,queenstown,-31.8976,26.8753,14.12,33,0,3.17,ZA,1689174679
332,vila velha,-20.3297,-40.2925,27.97,83,0,2.06,BR,1689174795
333,sao lourenco do sul,-31.3653,-51.9783,15.01,97,100,10.27,BR,1689174644
334,polyarnyy,69.1989,33.4478,23.43,44,22,5.59,RU,1689174795
335,cooper's town,26.8667,-77.5167,29.3,75,98,2.67,BS,1689174795
336,thaba-tseka,-29.522,28.6084,8.01,35,0,1.39,LS,1689174796
337,puerto baquerizo moreno,-0.9,-89.6,26.55,83,75,6.17,EC,1689174608
338,la sarre,48.8002,-79.1996,16.99,53,6,2.85,CA,1689174796
339,pak phanang,8.3511,100.202,29.01,75,23,2.26,TH,1689174796
340,tarakan,3.3,117.6333,28.03,77,100,1.99,ID,1689174796
341,saldanha,-33.0117,17.9442,16.79,55,32,3.51,ZA,1689174796
342,fonte boa,-2.4959,-66.2662,31.5,56,14,1.68,BR,1689174797
343,rawlins,41.7911,-107.2387,22.94,25,0,5.14,US,1689174797
344,leua,48.2156,18.6071,33.61,47,66,5.08,SK,1689174797
345,merritt,50.1123,-120.7942,16.29,66,85,0.89,CA,1689174797
346,veshenskaya,49.6303,41.7334,19.76,50,97,5.15,RU,1689174797
347,popondetta,-8.7537,148.2534,23.56,91,95,0.92,PG,1689174797
348,neiafu,-18.65,-173.9833,24.38,100,75,0.0,TO,1689174798
349,luderitz,-26.6481,15.1594,24.08,31,0,1.41,NA,1689174798
350,pacific grove,36.6177,-121.9166,13.9,95,100,2.24,US,1689174508
351,minas de barroteran,27.6333,-101.2833,29.5,55,25,1.62,MX,1689174798
352,tralee,52.2704,-9.7026,15.14,94,100,1.54,IE,1689174591
353,kovernino,57.1253,43.8142,11.52,88,100,4.53,RU,1689174798
354,daru,-9.0763,143.2092,24.94,81,88,7.65,PG,1689174798
355,yuzhno-kurilsk,44.0306,145.8556,14.81,99,100,1.63,RU,1689174799
356,port macquarie,-31.4333,152.9167,7.72,89,8,2.32,AU,1689174799
357,hammerfest,70.6634,23.6821,25.25,29,0,4.63,NO,1689174799
358,kiruna,67.8557,20.2251,21.51,30,0,6.69,SE,1689174799
359,palmaner,13.2,78.75,27.1,58,100,2.53,IN,1689174799
360,gizo,-8.103,156.8419,26.83,80,100,9.08,SB,1689174800
361,celestun,20.8667,-90.4,30.35,61,38,3.47,MX,1689174800
362,tabou,4.423,-7.3528,26.03,83,91,4.96,CI,1689174800
363,el calafate,-50.3408,-72.2768,-6.17,83,82,0.45,AR,1689174800
364,nuriootpa,-34.4833,139.0,8.05,66,13,2.19,AU,1689174563
365,neijiang,29.5835,105.0622,26.69,90,100,2.55,CN,1689174800
366,sarmiento,-45.5882,-69.07,0.98,75,9,0.45,AR,1689174801
367,tyukhtet,56.5389,89.3011,15.43,65,17,1.58,RU,1689174801
368,kukshi,22.2,74.75,27.52,83,99,3.07,IN,1689174801
369,samana,19.2056,-69.3369,31.12,74,75,3.09,DO,1689174801
370,yangjiang,21.85,111.9667,26.87,88,5,1.65,CN,1689174525
371,patrocinio,-18.9439,-46.9925,28.33,26,3,3.02,BR,1689174706
372,hanceville,34.0607,-86.7675,29.73,78,60,1.71,US,1689174801
373,el progreso,15.4,-87.8,32.01,70,20,2.06,HN,1689174802
374,saint-philippe,-21.3585,55.7679,21.77,76,30,1.96,RE,1689174802
375,north amherst,42.4104,-72.5309,30.79,68,6,0.89,US,1689174802
376,enewetak,11.3474,162.3373,28.55,77,6,7.53,MH,1689174802
377,sao gabriel da cachoeira,-0.1303,-67.0892,31.65,53,5,1.54,BR,1689174802
378,sorong,-0.8833,131.25,25.33,86,100,0.53,ID,1689174802
379,lautoka,-17.6167,177.4667,22.92,68,40,3.09,FJ,1689174803
380,shakawe,-18.3667,21.85,19.96,27,2,4.55,BW,1689174803
381,sitka,57.0531,-135.33,11.94,76,75,1.54,US,1689174636
382,bikenibeu village,1.3673,173.1241,27.98,78,75,2.06,KI,1689174803
383,porto novo,6.4965,2.6036,26.9,84,100,1.72,BJ,1689174803
384,taulaga,-11.0553,-171.0883,28.26,75,11,6.05,AS,1689174803
385,tazacorte,28.629,-17.9293,26.54,69,0,7.2,ES,1689174804
386,pacasmayo,-7.4006,-79.5714,23.37,75,48,5.58,PE,1689174804
387,manicore,-5.8092,-61.3003,31.97,66,40,2.57,BR,1689174804
388,puerto deseado,-47.7503,-65.8938,4.62,75,100,5.18,AR,1689174804
389,muravlenko,63.7898,74.523,16.81,49,100,4.03,RU,1689174804
390,ortigueira,-24.2083,-50.9494,23.96,49,0,3.16,BR,1689174804
391,fort st. john,56.2499,-120.8529,15.94,82,0,0.0,CA,1689174804
392,yarmouth,41.7057,-70.2286,32.2,70,0,2.57,US,1689174805
393,gadani,25.1185,66.7299,31.12,78,80,7.47,PK,1689174805
394,priozersk,61.0393,30.1291,23.3,20,80,3.01,RU,1689174805
395,saint-denis,48.9167,2.3333,27.19,37,0,5.14,FR,1689174805
396,santana,-0.0583,-51.1817,31.1,70,75,2.57,BR,1689174674
397,olyokminsk,60.3736,120.4264,14.99,89,100,2.36,RU,1689174805
398,brena alta,28.65,-17.7833,24.97,69,0,7.2,ES,1689174806
399,newman,37.3138,-121.0208,24.57,63,0,1.79,US,1689174806
400,vila do maio,15.1333,-23.2167,29.44,74,69,2.64,CV,1689174806
401,kolodeznyy,51.3333,39.1833,16.72,65,92,3.06,RU,1689174806
402,mossel bay,-34.1831,22.146,16.96,65,0,1.68,ZA,1689174806
403,veraval,20.9,70.3667,28.2,82,100,4.8,IN,1689174807
404,mbeya,-8.9,33.45,14.01,82,55,3.57,TZ,1689174807
405,aleksandrov gay,50.147,48.5704,23.67,37,66,4.39,RU,1689174807
406,djambala,-2.5447,14.7533,31.48,27,17,2.9,CG,1689174807
407,murzuq,25.9155,13.9184,36.14,13,0,4.46,LY,1689174807
408,nizhnesortymskiy,62.4397,71.7603,19.11,57,71,3.72,RU,1689174809
409,casablanca,33.5928,-7.6192,34.12,69,0,4.12,MA,1689174809
410,marlin,31.3063,-96.898,32.37,49,3,7.31,US,1689174809
411,mszczonow,51.9742,20.5208,24.62,65,100,2.42,PL,1689174809
412,ljusdal,61.8288,16.0913,15.14,89,100,1.28,SE,1689174810
413,fort-shevchenko,44.5086,50.263,24.13,55,0,4.79,KZ,1689174810
414,obihiro,42.9172,143.2044,19.21,97,88,0.39,JP,1689174810
415,placido de castro,-10.3353,-67.1856,33.24,36,3,1.89,BR,1689174810
416,xinyuan,37.3,99.0,8.69,87,100,0.41,CN,1689174810
417,luganville,-15.5333,167.1667,23.23,78,92,6.13,VU,1689174810
418,vincennes,48.85,2.4333,27.07,37,0,4.63,FR,1689174811
419,hassi messaoud,31.6804,6.0729,44.92,10,0,3.6,DZ,1689174811
420,reserve,30.0538,-90.5518,32.76,77,40,3.09,US,1689174811
421,ingeniero guillermo n. juarez,-23.9,-61.85,19.9,86,84,6.46,AR,1689174811
422,touros,-5.1989,-35.4608,29.04,63,9,7.71,BR,1689174811
423,manacor,39.5696,3.2096,37.68,50,7,1.22,ES,1689174744
424,sweet home,44.3976,-122.7362,18.7,71,42,0.89,US,1689174812
425,collie,-33.3667,116.15,15.31,82,100,7.25,AU,1689174812
426,bryne,58.7354,5.6477,18.26,77,40,6.69,NO,1689174812
427,aldinga beach,-35.2793,138.4604,12.59,70,56,4.81,AU,1689174812
428,ubari,26.5921,12.7805,35.86,11,0,5.77,LY,1689174812
429,trumann,35.6737,-90.5073,28.64,74,0,3.37,US,1689174812
430,dem'yanovo,60.3511,47.0842,16.59,99,99,3.85,RU,1689174813
431,big spring,32.2504,-101.4787,32.84,45,0,9.26,US,1689174813
432,fortuna,40.5982,-124.1573,14.4,95,100,0.0,US,1689174813
433,niafunke,15.9322,-3.9906,40.55,16,37,4.51,ML,1689174813
434,tranqueras,-31.2,-55.75,12.09,96,100,4.96,UY,1689174813
435,concepcion,-36.827,-73.0498,9.89,71,20,1.03,CL,1689174556
436,claveria,18.6074,121.0832,27.07,88,73,4.33,PH,1689174813
437,ovalle,-30.5983,-71.2003,15.86,55,17,1.0,CL,1689174757
438,grand falls-windsor,48.9332,-55.6649,21.95,76,100,2.24,CA,1689174814
439,sittwe,20.15,92.9,27.1,87,100,5.46,MM,1689174814
440,bani walid,31.7566,13.9942,34.62,18,0,6.44,LY,1689174814
441,filingue,14.3521,3.3168,37.74,30,75,3.16,NE,1689174814
442,chonchi,-42.6128,-73.8092,6.18,73,11,0.64,CL,1689174814
443,swan hill,-35.3378,143.5544,7.88,73,46,2.79,AU,1689174814
444,mpulungu,-8.7623,31.1141,25.55,48,4,6.23,ZM,1689174815
445,chernyshevskiy,63.0128,112.4714,9.01,86,66,1.61,RU,1689174815
446,washington,47.5001,-120.5015,20.22,56,75,1.8,US,1689174744
447,las tablas,7.7667,-80.2833,28.24,78,100,3.15,PA,1689174815
448,mili,6.0815,171.735,28.15,79,63,5.65,MH,1689174815
449,chuguyevka,44.1653,133.8633,15.59,99,93,1.6,RU,1689174815
450,carolina beach,34.0352,-77.8936,31.19,70,0,2.51,US,1689174663
451,souillac,-20.5167,57.5167,22.21,83,20,2.57,MU,1689174816
452,westport,41.1415,-73.3579,31.93,65,1,0.89,US,1689174797
453,xai-xai,-25.0519,33.6442,18.45,61,55,4.31,MZ,1689174816
454,sibiti,-3.6819,13.3499,32.04,30,41,1.97,CG,1689174816
455,orcopampa,-15.2661,-72.3417,10.79,30,4,0.93,PE,1689174816
456,puerto aysen,-45.4,-72.7,1.02,75,0,3.09,CL,1689174816
457,gambiran satu,-8.3939,114.1464,22.07,89,63,0.94,ID,1689174816
458,kununurra,-15.7667,128.7333,21.99,46,6,3.09,AU,1689174586
459,parabel',58.6978,81.4825,17.65,62,52,1.24,RU,1689174817
460,zlocieniec,53.5329,16.0113,25.5,60,47,5.04,PL,1689174817
461,gutierrez zamora,20.45,-97.0833,30.9,75,72,2.5,MX,1689174817
462,udaipur,24.5712,73.6918,29.5,71,95,5.64,IN,1689174817
463,lincoln,40.8,-96.667,20.95,93,75,7.72,US,1689174257
464,buenaventura,3.8801,-77.0312,29.46,70,50,1.35,CO,1689174602
465,saint-pierre,-21.3393,55.4781,21.82,68,0,2.06,RE,1689174817
466,tughyl,47.7252,84.2063,24.71,40,0,4.14,KZ,1689174818
467,saurimo,-9.6608,20.3916,28.02,17,0,2.92,AO,1689174818
468,cerro largo,-28.1486,-54.7381,20.98,85,97,2.8,BR,1689174657
469,sao jose da coroa grande,-8.8978,-35.1478,26.96,68,12,4.03,BR,1689174818
470,myitkyina,25.3833,97.4,23.19,100,100,0.51,MM,1689174818
471,nova mayachka,46.6,33.2271,26.15,36,40,4.04,UA,1689174818
472,miri,4.4148,114.0089,25.08,94,40,1.03,MY,1689174818
473,tari,12.4086,4.4914,35.91,35,88,2.64,NG,1689174819
474,meadville,41.6414,-80.1515,25.48,79,75,2.06,US,1689174819
475,khorixas,-20.3667,14.9667,20.89,16,0,10.68,NA,1689174819
476,mont-dore,-22.2833,166.5833,21.11,99,99,3.58,NC,1689174819
477,namibe,-15.1961,12.1522,30.28,25,0,2.22,AO,1689174819
478,chifeng,42.2683,118.9636,21.41,89,100,2.55,CN,1689174819
479,remire-montjoly,4.9167,-52.2667,28.02,74,75,2.57,GF,1689174820
480,madinat sittah uktubar,29.8167,31.05,32.78,17,0,7.1,EG,1689174820
481,pisco,-13.7,-76.2167,21.03,68,100,1.03,PE,1689174820
482,santarem,-2.4431,-54.7083,29.07,74,75,3.09,BR,1689174820
483,gardnerville ranchos,38.8882,-119.7413,22.9,51,0,1.34,US,1689174820
484,san isidro de curuguaty,-24.5167,-55.7,32.08,28,36,5.61,PY,1689174820
485,al kharj,24.155,47.3346,45.32,7,35,5.42,SA,1689174820
486,am timan,11.0297,20.2827,29.8,55,100,2.63,TD,1689174821
487,kyshtovka,56.555,76.6271,21.03,86,67,5.32,RU,1689174821
488,nadym,65.5333,72.5167,15.63,55,82,5.56,RU,1689174821
489,marsabit,2.3284,37.9899,24.88,38,85,9.88,KE,1689174821
490,tambacounda,13.7539,-13.7586,35.03,49,75,3.09,SN,1689174821
491,goundam,16.4145,-3.6708,40.84,13,62,2.26,ML,1689174821
492,sabang,5.8933,95.3214,28.64,75,12,5.93,ID,1689174821
493,markaz-e hukumat-e darweshan,31.1323,64.1934,38.02,4,0,4.14,AF,1689174822
494,gemena,3.25,19.7667,30.89,55,64,0.5,CD,1689174822
495,lerwick,60.1545,-1.1494,14.0,91,96,6.64,GB,1689174822
496,guerrero negro,27.9769,-114.0611,22.92,56,99,5.02,MX,1689174822
497,kidal,18.4411,1.4078,42.39,7,89,8.17,ML,1689174657
498,rabo de peixe,37.8,-25.5833,23.73,83,40,7.2,PT,1689174822
499,nefteyugansk,61.0998,72.6035,20.21,69,100,4.35,RU,1689174822
500,tsimasham,27.0989,89.536,15.15,98,100,0.34,BT,1689174823
501,caister-on-sea,52.6481,1.7265,22.99,56,85,7.63,GB,1689174823
502,pitimbu,-7.4706,-34.8086,29.33,70,8,5.91,BR,1689174612
503,zhytkavichy,52.2168,27.8561,22.26,47,25,2.03,BY,1689174823
504,ketchikan,55.3422,-131.6461,13.26,82,20,1.54,US,1689174823
505,vangviang,18.9333,102.45,23.98,98,88,0.72,LA,1689174823
506,mashi,12.9784,7.9529,37.89,22,13,3.45,NG,1689174823
507,agadez,19.75,10.25,39.4,9,35,3.59,NE,1689174824
508,zaranj,30.9667,61.8833,42.98,5,0,10.41,AF,1689174824
509,carutapera,-1.195,-46.02,28.01,81,19,3.32,BR,1689174824
510,amga,60.8953,131.9608,17.14,98,43,1.0,RU,1689174824
511,umm kaddadah,13.6017,26.6876,29.38,48,92,4.39,SD,1689174824
512,sim,54.993,57.6982,22.84,67,100,4.13,RU,1689174824
513,yuzhnoural'sk,54.4418,61.2536,21.79,74,100,5.29,RU,1689174824
514,kuanda,56.3161,116.0806,16.13,91,99,2.35,RU,1689174825
515,parambu,-6.2111,-40.6944,32.49,30,0,4.13,BR,1689174825
516,belyy yar,53.6039,91.3903,17.94,88,75,1.0,RU,1689174825
517,axim,4.8699,-2.2405,26.15,82,78,4.59,GH,1689174825
518,cacocum,20.7374,-76.3279,32.18,66,40,6.17,CU,1689174825
519,kalmunai,7.4167,81.8167,28.53,77,76,1.02,LK,1689174825
520,saint augustine beach,29.8505,-81.2654,31.72,62,68,1.33,US,1689174826
521,santa marta,11.2408,-74.199,31.05,72,100,0.89,CO,1689174407
522,labytnangi,66.6572,66.4183,16.17,55,98,5.07,RU,1689174826
523,urzhar,47.093,81.6294,26.66,35,0,4.1,KZ,1689174826
524,hit,33.6416,42.8251,40.09,6,0,8.43,IQ,1689174826
525,cadale,2.7603,46.3222,26.0,78,16,10.65,SO,1689174826
526,la'ie,21.6477,-157.9253,24.69,83,98,2.68,US,1689174826
527,forbes,-33.3833,148.0167,5.51,88,1,1.26,AU,1689174827
528,sake,-1.5736,29.045,21.62,65,77,0.53,CD,1689174827
529,pocone,-16.2567,-56.6228,36.33,17,2,5.22,BR,1689174613
530,portage la prairie,49.9728,-98.2926,18.05,53,75,3.09,CA,1689174760
531,yenangyaung,20.4667,94.8833,28.87,68,100,5.22,MM,1689174827
532,houlton,46.1262,-67.8403,26.23,63,0,2.54,US,1689174827
533,colonia menno,-22.3667,-59.8167,32.49,31,95,9.63,PY,1689174828
534,nishinoomote,30.7333,131.0,26.64,87,100,3.59,JP,1689174828
535,nili,33.7218,66.1302,27.95,11,0,4.8,AF,1689174828
536,whitby,54.4877,-0.615,19.06,71,63,2.68,GB,1689174594
537,amos,48.5669,-78.1162,17.93,50,4,2.41,CA,1689174828
538,cidade velha,14.9167,-23.6167,29.26,61,20,5.66,CV,1689174828
539,tosontsengel,48.7567,98.2839,11.25,87,89,1.17,MN,1689174828
540,buka,40.8108,69.1986,33.91,8,0,3.81,UZ,1689174829
541,akureyri,65.6835,-18.0878,8.96,71,75,11.32,IS,1689174829
542,jonuta,18.0833,-92.1333,30.12,63,48,6.06,MX,1689174829
543,itoman,26.1247,127.6694,29.21,84,20,3.09,JP,1689174829
544,tahe,52.3333,124.7333,18.68,55,100,1.75,CN,1689174829
545,bontang,0.1333,117.5,26.14,83,100,5.17,ID,1689174632
546,southeast arcadia,27.1863,-81.8521,34.37,79,29,1.13,US,1689174830
547,paulden,34.8856,-112.4682,31.0,37,4,0.45,US,1689174830
548,nemuro,43.3236,145.575,15.38,100,100,1.44,JP,1689174830
549,keflavik,64.0049,-22.5624,15.95,51,0,9.77,IS,1689174830
550,richards bay,-28.783,32.0377,16.96,77,24,1.1,ZA,1689174830
551,coahuayana de hidalgo,18.7,-103.6583,28.22,74,100,1.78,MX,1689174831
552,sangod,24.9167,76.2833,28.86,77,97,2.87,IN,1689174833
553,mount pearl,47.5166,-52.7813,18.74,87,1,2.68,CA,1689174673
554,monrovia,6.3005,-10.7969,24.87,82,99,4.56,LR,1689174556
555,mugia,43.1041,-9.2179,20.51,70,3,5.37,ES,1689174833
556,ulladulla,-35.35,150.4667,9.14,76,3,2.34,AU,1689174834
557,jefferson city,38.5767,-92.1735,29.61,58,0,4.63,US,1689174834
558,karakecili,39.5942,33.3778,29.9,25,12,1.92,TR,1689174834
559,du quoin,38.0114,-89.2362,28.26,71,0,4.4,US,1689174834
560,chaohu,31.6,117.8667,28.93,76,100,2.44,CN,1689174835
561,malpica,43.3228,-8.8105,22.35,69,11,3.71,ES,1689174835
562,el granada,37.5027,-122.4694,16.63,90,100,3.6,US,1689174835
563,dakhla,23.6848,-15.958,24.01,78,41,8.75,EH,1689174835
564,santa rosalia,27.3167,-112.2833,28.97,51,93,1.19,MX,1689174836
565,rabaul,-4.1967,152.1721,25.97,84,100,6.71,PG,1689174836
566,shumerlya,55.5005,46.4129,12.51,76,100,3.6,RU,1689174836
567,kafr ad dawwar,31.1339,30.1284,29.64,41,0,6.28,EG,1689174836
568,inirida,3.8653,-67.9239,27.81,84,21,0.75,CO,1689174836
569,kismayo,-0.3582,42.5454,25.61,76,4,8.14,SO,1689174816
570,islaz,43.7333,24.75,38.08,29,8,4.06,RO,1689174837
571,bam,29.106,58.357,37.87,4,2,6.52,IR,1689174837
572,severnoye,56.3491,78.3619,25.89,71,55,3.24,RU,1689174837
573,luang namtha,20.9497,101.4011,22.77,91,49,0.83,LA,1689174837
574,nova vicosa,-17.8919,-39.3719,26.76,61,2,5.23,BR,1689174580
575,shanhecun,44.7,127.2,19.58,76,99,1.81,CN,1689174837
576,curaca,-8.9903,-39.9094,28.92,43,38,4.92,BR,1689174848
577,howard springs,-12.497,131.047,23.95,80,8,2.54,AU,1689174848
578,quthing,-30.4,27.7003,10.55,34,0,1.45,LS,1689174848
579,narvik,68.4384,17.4272,25.21,50,98,5.28,NO,1689174848
580,skien,59.2075,9.6105,20.79,77,100,3.31,NO,1689174849
581,caerano di san marco,45.7852,12.0028,31.9,46,0,1.54,IT,1689174849
582,inhambane,-23.865,35.3833,19.79,63,67,5.5,MZ,1689174849
583,dingcheng,32.1272,115.0394,29.29,74,99,3.25,CN,1689174850
584,ishigaki,24.3448,124.1572,29.07,89,40,2.57,JP,1689174850
585,pariaman,-0.619,100.12,25.03,86,76,1.57,ID,1689174850
586,torbat-e heydariyeh,35.274,59.2195,29.12,28,0,13.26,IR,1689174851
587,hilongos,10.3744,124.7497,26.7,87,99,4.94,PH,1689174851
588,nyandoma,61.669,40.1991,10.63,99,100,3.34,RU,1689174851
589,lanivtsi,49.8633,26.0908,23.89,61,72,3.03,UA,1689174851
590,kozyatyn,49.7143,28.8339,22.71,47,36,2.71,UA,1689174852
591,kuna,43.4918,-116.4201,24.85,46,0,0.0,US,1689174852
592,williamsport,41.2412,-77.0011,27.83,64,0,1.54,US,1689174770
593,umba,66.6871,34.3429,18.71,50,96,3.26,RU,1689174852
594,boende,-0.2167,20.8667,30.79,52,98,1.05,CD,1689174852
